Site Id,Site Name,Latitude,Longitude,Easting,Northing,Zone,Gauge Zero (Ahd),Site Start Date,Site Cease Date,Drainage Area (Sq.Km),
"405200","GOULBURN RIVER @ MURCHISON (McPhee's Rest)","-36.61703491","145.2195882","340786.999","5946120","55","108.679","1881/06/14","","10772"
"405201","GOULBURN RIVER @ TRAWOOL","-37.0916115","145.2025134","340251","5893439","55","138.93","1908/01/01","","7335"
"405202","GOULBURN RIVER @ SEYMOUR","-37.01990004","145.1089547","331776.996","5901234","55","130.244","1957/12/19","","8601"
"405203","GOULBURN RIVER @ EILDON","-37.2467952","145.8892935","401492.001","5877157","55","205.729","1916/01/01","","3911"
"405204","GOULBURN RIVER @ SHEPPARTON","-36.37977731","145.3935312","355904.002","5972715","55","100.127","1921/06/08","","16125"
"405205","MURRINDINDI RIVER @ MURRINDINDI ABOVE COLWELLS","-37.4136725","145.5640351","372925","5858254","55","0","1939/06/13","","108"
"405209","ACHERON RIVER @ TAGGERTY","-37.31772866","145.7128865","385952.999","5869088.999","55","198.177","1945/12/12","","619"
"405212","SUNDAY CREEK @ TALLAROOK","-37.09895462","145.0561441","327257.999","5892367.999","55","153.999","1945/11/21","","337"
"405214","DELATITE RIVER @ TONGA BRIDGE","-37.15829277","146.1130903","421249.005","5887185","55","312.764","1947/02/06","","368"
"405215","HOWQUA RIVER @ GLAN ESK","-37.22958349","146.2072162","429672.999","5879350","55","306.393","1947/02/07","","368"
"405217","YEA RIVER @ DEVLINS BRIDGE","-37.38272675","145.4730812","364820.005","5861561","55","206.752","1954/03/26","","360"
"405218","JAMIESON RIVER @ GERRANG BRIDGE","-37.29125953","146.1878417","428013.003","5872493","55","306.523","1954/07/01","","368"
"405219","GOULBURN RIVER @ DOHERTYS","-37.33088353","146.1307397","422992","5868052","55","298.435","1954/08/26","","694"
"405226","PRANJIP CREEK @ MOORILIM","-36.62110636","145.3071965","348629.998","5945810","55","115.596","1957/12/10","","787"
"405227","BIG RIVER @ JAMIESON","-37.36747223","146.0569575","416496.001","5863930","55","296.361","1958/02/06","","619"
"405228","HUGHES CREEK @ TARCOMBE ROAD","-36.95108333","145.2836389","347180.213","5909163.687","55","157.854","1958/09/16","","471"
"405229","WANALTA CREEK @ WANALTA","-36.63490876","144.870869","309642.997","5943501.999","55","113.877","1960/05/20","","108"
"405230","CORNELLA CREEK @ COLBINABBIN","-36.60413689","144.8047761","303655.005","5946783","55","111.443","1960/05/23","","259"
"405231","KING PARROT CREEK @ FLOWERDALE","-37.34705697","145.2883666","348393.999","5865237.999","55","258.092","1951/06/25","","181"
"405232","GOULBURN RIVER @ McCOYS BRIDGE","-36.17770454","145.1190535","330846.003","5994688","55","91.443","1965/08/24","","16806"
"405234","SEVEN CREEKS @ D/S OF POLLY MCQUINN WEIR","-36.88700722","145.682753","382619.999","5916837.999","55","440.006","1965/06/22","","153"
"405237","SEVEN CREEKS @ EUROA TOWNSHIP","-36.762369","145.585843","373779.725","5930555.927","55","172.895","1963/05/14","","332"
"405240","SUGARLOAF CREEK @ ASH BRIDGE","-37.05963157","145.0550452","327071.004","5896729","55","142.398","1966/10/13","","609"
"405241","RUBICON RIVER @ RUBICON","-37.29036608","145.8275646","396077.003","5872257","55","0","1922/05/01","","129"
"405246","CASTLE CREEK @ ARCADIA","-36.59083189","145.3511279","352500.998","5949237","55","119.457","1970/05/06","","164"
"405247","STONY CREEK @ TAMLEUGH","-36.59087224","145.6257751","377070.999","5949619","55","139.195","1970/05/07","","339"
"405248","MAJOR CREEK @ GRAYTOWN","-36.85444774","144.9145895","314082.997","5919230","55","140.26","1971/04/19","","282"
"405251","BRANKEET CREEK @ ANCONA","-36.9688213","145.7854573","391888.005","5907883","55","311.633","1971/05/25","","121"
"405253","GOULBURN RIVER @ GOULBURN WEIR","-36.71284","145.17394","336906.87","5935414.368","55","111.879","1967/03/01","","10627"
"405257","SNOBS CREEK @ SNOBS CREEK HATCHERY","-37.2616","145.8723","400004.376","5875496.672","55","215.21","1974/03/12","","51"
"405258","GOULBURN RIVER @ LAKE EILDON (HEAD GAUGE)","-37.22512324","145.9320494","405257","5879605","55","0","1922/07/01","","3872"
"405259","GOULBURN RIVER @ GOULBURN WEIR (H.G.)","-36.71753229","145.1711321","336665.997","5934889","55","0","1890/06/01","","10627"
"405267","GOULBURN RIVER @ LAKE EILDON GOUGHS BAY","-37.19227515","146.0673433","417224.001","5883376","55","","1975/09/03","2013/05/16",""
"405268","GOULBURN RIVER @ LAKE EILDON POINT TEHAN","-37.09854714","145.9135961","403459.004","5893629","55","","1975/09/03","2013/05/16",""
"405269","SEVEN CREEKS @ KIALLA WEST","-36.45670697","145.3990649","356542.004","5964189","55","106.824","1977/06/21","","1505"
"405270","GOULBURN RIVER @ ARCADIA DOWNS","-36.43884022","145.3474332","351880.998","5966093","55","101.045","1977/06/29","","12038"
"405271","GOULBURN RIVER @ SHEPPARTON GOLF CLUB","-36.36305556","145.3677778","353562.458","5974531.296","55","99.971","1977/06/08","","16150"
"405274","HOME CREEK @ YARCK","-37.10595561","145.6051462","376060.002","5892449","55","186.896","1977/06/09","","187"
"405276","GOULBURN RIVER @ LOCH GARRY","-36.24143297","145.2869464","346071","5987898","55","96.811","1978/02/07","","16490"
"405282","GOULBURN RIVER @ KIRWAN'S BRIDGE","-36.74604147","145.1397113","333921.003","5931672","55","0","1971/09/23","","0"
"405291","WHITEHEADS CREEK @ WHITEHEADS CREEK","-37.03206769","145.2088422","340689.004","5900056","55","0","1988/06/09","","51"
"405294","HONEYSUCKLE CREEK @ U/S OF VIOLET TOWN","-36.7121945","145.7604552","389293.002","5936324","55","0","1989/04/28","","23"
"405306","SEVEN CREEKS @ STRATHBOGIE","-36.8627","145.7334","387098.002","5919609.904","55","0","1997/07/09","","0"
"405307","SEVEN CREEKS @ GALLS GAP ROAD","-36.87985","145.61966","376986.44","5917566.761","55","0","1997/07/09","","0"
"405308","CASTLE CK @ TELFORD BRIDGE","-36.78397","145.57084","372476.348","5928139.646","55","0","1997/07/09","","0"
"405310","GOULBURN RIVER @ GHIN GHIN","-37.18168074","145.3689753","355218","5883713","55","0","2001/09/04","","0"
"405321","DELATITE R @ SAWMILL SETTLEMENT","-37.1057","146.3692","443951.168","5893201.472","55","0","2007/05/15","","58.2"
"405323","GOULBURN RIVER @ TAHBILK WINERY","-36.82528627","145.0846175","329178.004","5922783","55","0","2008/06/17","","0"
"405325","YEA RIVER @ GOULBURN VALLEY WATER PUMPING STATION","-37.21675439","145.4353772","361177.506","5879935.331","55","","2008/09/23","",""
"405328","STEAVENSON RIVER @ FALLS ROAD MARYSVILLE","-37.52579759","145.7735031","391624.999","5846090","55","0","2009/11/17","","0"
"405329","GOULBURN RIVER @ KILLINGWORTH","-37.16393325","145.4221754","359907.999","5885762","55","0","2009/12/09","","0"
"405335","KILMORE CREEK U/S WASTE WATER TREATMENT PLANT","-37.26957793","144.947817","318041","5873248","55","","2014/12/08","",""
"405336","Sevens Ck @ Abbinga Reservoir","-36.801381","145.622536","377117.247","5926275.764","55","","2020/04/01","",""
"405341","Yea River @ Old Killingworth Rd Yea","-37.210147","145.413093","359187.39","5880621.185","55","","2023/04/06","",""
"405342","King Parrot Creek @ Fairview Rd Bridge Kerrisdale","-37.173143","145.252392","344850.882","5884475.801","55","","","",""
"405702","CATTANACH CHANNEL @ WARANGA INLET","-36.58666234","145.1275055","332486.003","5949333","55","121.337","1957/01/01","","0"
"405704","EAST GOULBURN MAIN CHANNEL @ 8 KM FLUME","-36.67707469","145.2579531","344339.004","5939522","55","0","1958/01/01","","0"
"405705","WARANGA WESTERN CHANNEL @ 0 MILE 40 CHAIN STRUCTURE","-36.54026488","145.0174262","322531.005","5954283","55","0","1928/01/01","","0"
"405708","CENTRAL GOULBURN (CUSSAN) @ NO 3 CH O/TAKE MEAS WEIR","-36.55895464","145.2156596","340316.003","5952557","55","0","1943/05/01","","0"
"405709","CENTRAL GOULBURN(WILSON) @ NO.4CH O/TAKE MEASURING WEIR","-36.52469146","145.1981647","338679.002","5956329","55","0","1943/06/01","","0"
"405710","CENTRAL GOULBURN (BRAY) @ NO 6CH - OFFTAKE MEAS. WEIR","-36.51142691","145.1794227","336973.002","5957769","55","0","1943/06/01","","0"
"405717","CENTRAL GOULBURN NO 9 CHANNEL @ OFFTAKE","-36.53800749","145.0198965","322747.003","5954538.001","55","0","1928/01/01","","0"
"405720","RODNEY MAIN DRAIN @ WELLS CREEK","-36.18631464","145.1410759","332844.998","5993771","55","98.285","1977/05/27","","0"
"405738","E.G.M. CHANNEL @ BROKEN CK OUTFALL (KATANDRA WEIR)","-36.10881709","145.6117809","375051.003","6003076.001","55","112.861","1991/03/04","","0"
"405779","SHEPPARTON DRAIN NO 11 D/S HOLMES RD BRIDGE","-36.18072538","145.3824835","354543.997","5994780","55","0","2003/03/19","","0"
"405837","RAINGAUGE @ MARYSVILLE GOLF CLUB","-37.49575412","145.7478455","389312.997","5849379","55","0","2001/06/21","","0"
"405842","Raingauge @ Murrundindi Rd Murrundindi Falls","-37.373905","145.566178","373047.577","5862669.099","55","","2022/12/20","",""
"405843","Raingauge @ Black Range Rd Murrundindi","-37.3766","145.6213","377932.773","5862442.823","55","","2022/12/20","",""
"405844","Raingauge @ Old SEC Sawmill Rubicon","-37.373905","145.865321","399535.12","5863029.547","55","","","",""
"405845","Raingauge @ Falls Rd Strath Creek","-37.269419998","145.21086","341365.27","5873724.845","55","","","",""
"405846","Raingauge @ Spring Ck Rd Fawcett","-37.079461","145.714459","385733.696","5895525.49","55","","2023/04/06","",""
"405847","Raingauge @ Young Lane Puckapunyal","-36.9708","144.7946","303682.923","5906079.732","55","","2023/04/06","",""
"409215","MURRAY RIVER @ BARMAH","-36.01760591","144.9610344","316260.998","6012162","55","89.302","1922/07/01","","0"
